[
    {
        "MemberId": 2,
        "Name": "Br√ºgge",
        "CountryIsoCode": "BEL",
        "Country": "Belgium",
        "Street": null,
        "City": "Brugge",
        "State": "Vlaams Gewest",
        "County": "West-Vlaanderen",
        "Longitude": 3.224651000,
        "Latitude": 51.208958000,
        "PhotoCount": 0,
        "Id": 7
    },
    {
        "MemberId": 2,
        "Name": "Antwerpen",
        "CountryIsoCode": "BEL",
        "Country": "Belgium",
        "Street": null,
        "City": "Antwerpen",
        "State": "Vlaams Gewest",
        "County": "Antwerpen",
        "Longitude": 4.399050000,
        "Latitude": 51.222175000,
        "PhotoCount": 0,
        "Id": 12
    },
    {
        "MemberId": 2,
        "Name": "Wiesbaden",
        "CountryIsoCode": "DEU",
        "Country": "Germany",
        "Street": null,
        "City": "Wiesbaden",
        "State": "Hessen",
        "County": "Darmstadt",
        "Longitude": 8.248353400,
        "Latitude": 50.072482500,
        "PhotoCount": 0,
        "Id": 19
    },
    {
        "MemberId": 2,
        "Name": "Kloster Eberbach, Eltville",
        "CountryIsoCode": "DEU",
        "Country": "Germany",
        "Street": null,
        "City": "Eltville",
        "State": "Hessen",
        "County": "Darmstadt",
        "Longitude": 8.047865000,
        "Latitude": 50.042766000,
        "PhotoCount": 0,
        "Id": 23
    },
    {
        "MemberId": 2,
        "Name": "Dublin",
        "CountryIsoCode": "IRL",
        "Country": "Ireland",
        "Street": null,
        "City": "Dublin",
        "State": "Dublin",
        "County": "Dublin City",
        "Longitude": -6.259334000,
        "Latitude": 53.347883000,
        "PhotoCount": 0,
        "Id": 24
    },
    {
        "MemberId": 3,
        "Name": "Wiesbaden,Hessen,Germany",
        "CountryIsoCode": "DEU",
        "Country": "Germany",
        "Street": "Kranzplatz",
        "City": "Wiesbaden",
        "State": "Hessen",
        "County": "Darmstadt",
        "Longitude": 8.248353400,
        "Latitude": 50.072482500,
        "PhotoCount": 0,
        "Id": 37
    },
    {
        "MemberId": 3,
        "Name": "Krong Siem Reap,Siem Reap,Cambodia",
        "CountryIsoCode": "KHM",
        "Country": "Cambodia",
        "Street": "Unnamed Road",
        "City": "Krong Siem Reap",
        "State": "Siem Reap",
        "County": "Siem Reap",
        "Longitude": 103.859722222,
        "Latitude": 13.3622222222,
        "PhotoCount": 0,
        "Id": 38
    },
    {
        "MemberId": 3,
        "Name": "Kerikeri,Northland,New Zealand",
        "CountryIsoCode": "NZL",
        "Country": "New Zealand",
        "Street": "Kerikeri Road",
        "City": "Kerikeri",
        "State": "Northland",
        "County": null,
        "Longitude": 173.966667,
        "Latitude": -35.216667,
        "PhotoCount": 0,
        "Id": 39
    },
    {
        "MemberId": 3,
        "Name": "Waiotapu,Bay Of Plenty,New Zealand",
        "CountryIsoCode": "NZL",
        "Country": "New Zealand",
        "Street": "Rotohoe Road",
        "City": "Waiotapu",
        "State": "Bay Of Plenty",
        "County": null,
        "Longitude": 176.367513,
        "Latitude": -38.3558981,
        "PhotoCount": 0,
        "Id": 40
    },
    {
        "MemberId": 3,
        "Name": "Tongariro National Park,Manawatu-Wanganui,New Zealand",
        "CountryIsoCode": "NZL",
        "Country": "New Zealand",
        "Street": "Tongariro Alpine Crossing",
        "City": "Tongariro National Park",
        "State": "Manawatu-Wanganui",
        "County": null,
        "Longitude": 0,
        "Latitude": 0,
        "PhotoCount": 0,
        "Id": 41
    },
    {
        "MemberId": 3,
        "Name": "Uva Province,Sri Lanka",
        "CountryIsoCode": "LKA",
        "Country": "Sri Lanka",
        "Street": "Unnamed Road",
        "City": null,
        "State": "Uva Province",
        "County": "Moneragala",
        "Longitude": 81.35,
        "Latitude": 6.8666667,
        "PhotoCount": 0,
        "Id": 42
    },
    {
        "MemberId": 3,
        "Name": "Haputale,Uva Province,Sri Lanka",
        "CountryIsoCode": "LKA",
        "Country": "Sri Lanka",
        "Street": "Monamaya Scheme Road",
        "City": "Haputale",
        "State": "Uva Province",
        "County": "Badulla",
        "Longitude": 80.9666667,
        "Latitude": 6.7666667,
        "PhotoCount": 0,
        "Id": 43
    },
    {
        "MemberId": 3,
        "Name": "Ella,Uva Province,Sri Lanka",
        "CountryIsoCode": "LKA",
        "Country": "Sri Lanka",
        "Street": "Waterfall Road",
        "City": "Ella",
        "State": "Uva Province",
        "County": "Badulla",
        "Longitude": 81.05,
        "Latitude": 6.9833333,
        "PhotoCount": 0,
        "Id": 44
    },
    {
        "MemberId": 3,
        "Name": "Makehelwala,Sabaragamuwa Province,Sri Lanka",
        "CountryIsoCode": "LKA",
        "Country": "Sri Lanka",
        "Street": "Ihalakotte Railway Station Road",
        "City": "Makehelwala",
        "State": "Sabaragamuwa Province",
        "County": "Kegalle",
        "Longitude": 0,
        "Latitude": 0,
        "PhotoCount": 0,
        "Id": 45
    },
    {
        "MemberId": 3,
        "Name": "Rambukkana,Sabaragamuwa Province,Sri Lanka",
        "CountryIsoCode": "LKA",
        "Country": "Sri Lanka",
        "Street": "Rambukkana - Mawathagama Road",
        "City": "Rambukkana",
        "State": "Sabaragamuwa Province",
        "County": "Kegalle",
        "Longitude": 0,
        "Latitude": 0,
        "PhotoCount": 0,
        "Id": 46
    },
    {
        "MemberId": 3,
        "Name": "Tekapo,Canterbury,New Zealand",
        "CountryIsoCode": "NZL",
        "Country": "New Zealand",
        "Street": "Tekapo-Twizel Road",
        "City": "Tekapo",
        "State": "Canterbury",
        "County": null,
        "Longitude": 0,
        "Latitude": 0,
        "PhotoCount": 0,
        "Id": 47
    },
    {
        "MemberId": 3,
        "Name": "Kaka Point,Otago,New Zealand",
        "CountryIsoCode": "NZL",
        "Country": "New Zealand",
        "Street": "Moana Street",
        "City": "Kaka Point",
        "State": "Otago",
        "County": null,
        "Longitude": 0,
        "Latitude": 0,
        "PhotoCount": 0,
        "Id": 48
    }
]